[
  {
    "scan_id": "PR-20260705-191342",
    "country": "Panama",
    "city": "Panama City",
    "center_lat": 8.9823792,
    "center_lng": -79.51986959999999,
    "radius_km": 1.0,
    "scan_time": "2026-07-05T19:13:42Z",
    "points_scanned": 20,
    "potholes_found": 0
  },
  {
    "scan_id": "PR-20260706-002900",
    "country": "Panama",
    "city": "Punta Pac\u00edfica, San Francisco, Distrito de Panam\u00e1",
    "center_lat": 8.9764382,
    "center_lng": -79.5079439,
    "radius_km": 0.7,
    "scan_time": "2026-07-06T00:29:00Z",
    "points_scanned": 9,
    "potholes_found": 1
  },
  {
    "scan_id": "PR-20260706-012726",
    "country": "Panama",
    "city": "Custom point (8.9785, -79.5118)",
    "center_lat": 8.978510116387069,
    "center_lng": -79.51183319091798,
    "radius_km": 0.8,
    "scan_time": "2026-07-06T01:27:26Z",
    "points_scanned": 9,
    "potholes_found": 2
  },
  {
    "scan_id": "PR-20260706-015556",
    "country": "Panama",
    "city": "Custom point (8.9842, -79.5066)",
    "center_lat": 8.98419026491264,
    "center_lng": -79.50659751892091,
    "radius_km": 2.0,
    "scan_time": "2026-07-06T01:55:56Z",
    "points_scanned": 12,
    "potholes_found": 0
  },
  {
    "scan_id": "PR-20260706-020448",
    "country": "Panama",
    "city": "Custom point (8.9861, -79.5201)",
    "center_lat": 8.986113653240551,
    "center_lng": -79.52008366584779,
    "radius_km": 0.2,
    "scan_time": "2026-07-06T02:04:48Z",
    "points_scanned": 9,
    "potholes_found": 3
  },
  {
    "scan_id": "PR-20260706-023723",
    "country": "Panama",
    "city": "Custom point (8.4653, -80.1839)",
    "center_lat": 8.465326014727557,
    "center_lng": -80.18388748168947,
    "radius_km": 1.1,
    "scan_time": "2026-07-06T02:37:23Z",
    "points_scanned": 0,
    "potholes_found": 0
  },
  {
    "scan_id": "PR-20260706-034842",
    "country": "Panama",
    "city": "Exact coordinates (8.401417, -80.270611)",
    "center_lat": 8.401417,
    "center_lng": -80.270611,
    "radius_km": 0.4,
    "scan_time": "2026-07-06T03:48:42Z",
    "points_scanned": 6,
    "potholes_found": 2
  },
  {
    "scan_id": "PR-20260706-040605",
    "country": "Panama",
    "city": "Exact coordinates (8.401417, -80.270611)",
    "center_lat": 8.401417,
    "center_lng": -80.270611,
    "radius_km": 0.4,
    "scan_time": "2026-07-06T04:06:05Z",
    "points_scanned": 4,
    "potholes_found": 1
  },
  {
    "scan_id": "PR-20260706-042042",
    "country": "Panama",
    "city": "Exact coordinates (8.401417, -80.270611)",
    "center_lat": 8.401417,
    "center_lng": -80.270611,
    "radius_km": 0.2,
    "scan_time": "2026-07-06T04:20:42Z",
    "points_scanned": 14,
    "potholes_found": 0
  },
  {
    "scan_id": "PR-20260706-043233",
    "country": "Panama",
    "city": "Exact coordinates (8.401417, -80.270611)",
    "center_lat": 8.401417,
    "center_lng": -80.270611,
    "radius_km": 0.2,
    "scan_time": "2026-07-06T04:32:33Z",
    "points_scanned": 14,
    "potholes_found": 0
  },
  {
    "scan_id": "PR-20260706-181017",
    "country": "Panama",
    "city": "Custom point (8.9824, -79.5199)",
    "center_lat": 8.9824,
    "center_lng": -79.5199,
    "radius_km": 2.0,
    "scan_time": "2026-07-06T18:10:17Z",
    "points_scanned": 17,
    "potholes_found": 0
  },
  {
    "scan_id": "PR-20260706-181717",
    "country": "Panama",
    "city": "Custom point (8.9861, -79.5193)",
    "center_lat": 8.98605536889577,
    "center_lng": -79.51927900314331,
    "radius_km": 0.2,
    "scan_time": "2026-07-06T18:17:17Z",
    "points_scanned": 20,
    "potholes_found": 0
  },
  {
    "scan_id": "PR-20260707-031411",
    "mode": "street",
    "country": "Panama",
    "city": "Test Street",
    "center_lat": 8.9834,
    "center_lng": -79.5199,
    "radius_km": null,
    "path": [
      [
        8.9824,
        -79.5199
      ],
      [
        8.9834,
        -79.5199
      ],
      [
        8.9844,
        -79.5199
      ]
    ],
    "scan_time": "2026-07-07T03:14:11Z",
    "points_scanned": 5,
    "potholes_found": 0
  }
]